[
	{
		"id": 1,
		"type_id": 1,
		"name": "Evergreen General Hospital",
		"address": "614 Main St NW",
		"locality": "Milk River",
		"postal_code": "T0K1M0",
		"latitude": "49.153253",
		"longitude": "-112.086356",
		"phone_number": "4036470048",
		"fax_number": "4036472002",
		"doctor": [{ "id": "109857301" }],
		"location_type": { "id": 1, "name": "Active Treatment Hospital" }
	},
	{
		"id": 2,
		"type_id": 1,
		"name": "Summitview Community Hospital",
		"address": "625 8 Ave SW",
		"locality": "Calgary",
		"postal_code": "T2P1G4",
		"latitude": "51.046058",
		"longitude": "-114.075245",
		"phone_number": "4039439870",
		"fax_number": "5832071087",
		"doctor": [{ "id": "336147900" }],
		"location_type": { "id": 1, "name": "Active Treatment Hospital" }
	},
	{
		"id": 3,
		"type_id": 1,
		"name": "Meadowbrook Hospital",
		"address": "31 Ave NW",
		"locality": "Edmonton",
		"postal_code": "T6J6Y5",
		"latitude": "53.463528",
		"longitude": "-113.493422",
		"phone_number": "7807352500",
		"fax_number": "7807350007",
		"doctor": [{ "id": "771235987" }],
		"location_type": { "id": 1, "name": "Active Treatment Hospital" }
	},
	{
		"id": 4,
		"type_id": 1,
		"name": "Sunrise Memorial Hospital",
		"address": "4920 54 Ave",
		"locality": "Elk Point",
		"postal_code": "T0A1A0",
		"latitude": "53.901363",
		"longitude": "-110.899753",
		"phone_number": "7807241187",
		"fax_number": "7807243800",
		"doctor": [{ "id": "899032148" }],
		"location_type": { "id": 1, "name": "Active Treatment Hospital" }
	},
	{
		"id": 5,
		"type_id": 1,
		"name": "Harmony General Hospital",
		"address": "4945 Chalmers Ave",
		"locality": "Swan Hills",
		"postal_code": "T0G2C0",
		"latitude": "54.718611",
		"longitude": "-115.402764",
		"phone_number": "7803331200",
		"fax_number": "7803331200",
		"doctor": [{ "id": "547635010" }],
		"location_type": { "id": 1, "name": "Active Treatment Hospital" }
	},
	{
		"id": 6,
		"type_id": 11,
		"name": "Pinecrest Medical & Wellness Center",
		"address": "60 MacKenzie Way SW",
		"locality": "Airdrie",
		"postal_code": "T4B0V7",
		"latitude": "51.291044",
		"longitude": "-114.022616",
		"phone_number": "4039481400",
		"fax_number": "4039481401",
		"doctor": [{ "id": "453157983" }, { "id": "886100521" }],
		"location_type": { "id": 11, "name": "Practitioners Office" }
	},
	{
		"id": 7,
		"type_id": 11,
		"name": "Crestwood Health Center",
		"address": "605 13 St",
		"locality": "Cold Lake",
		"postal_code": "T9M1B2",
		"latitude": "54.46623",
		"longitude": "-110.178086",
		"phone_number": "7801872187",
		"fax_number": "7801872188",
		"doctor": [{ "id": "223648147" }],
		"location_type": { "id": 11, "name": "Practitioners Office" }
	},
	{
		"id": 8,
		"type_id": 11,
		"name": "Beacon Ridge Medical Center",
		"address": "12625 Bonaventure Dr SE",
		"locality": "Calgary",
		"postal_code": "T2J3S7",
		"latitude": "50.940579",
		"longitude": "-114.063473",
		"phone_number": "5870018710",
		"fax_number": "5870018711",
		"doctor": [{ "id": "251847900" }],
		"location_type": { "id": 11, "name": "Practitioners Office" }
	},
	{
		"id": 9,
		"type_id": 11,
		"name": "Willowbrook Medical Institute",
		"address": "405 1 Ave NE",
		"locality": "Milk River",
		"postal_code": "T0K1M0",
		"latitude": "49.149318",
		"longitude": "-112.079997",
		"phone_number": "4036204487",
		"fax_number": "4038120712",
		"doctor": [{ "id": "291004870" }],
		"location_type": { "id": 11, "name": "Practitioners Office" }
	},
	{
		"id": 10,
		"type_id": 11,
		"name": "Mercy Haven Medical Center",
		"address": "4933 98 Ave NW",
		"locality": "Edmonton",
		"postal_code": "T6B2Y7",
		"latitude": "53.53817",
		"longitude": "-113.415732",
		"phone_number": "7801140097",
		"fax_number": "7801512172",
		"doctor": [],
		"location_type": { "id": 11, "name": "Practitioners Office" }
	}
]
